% program   : RTKPOST ver.2.4.2
% inp file  : C:\Users\DELL1~1\AppData\Local\Temp\rtk_ew_data-master\rtk_ew_data-master\m8t_rov2.obs
% inp file  : C:\Users\DELL1~1\AppData\Local\Temp\rtk_ew_data-master\rtk_ew_data-master\m8t_rov2.nav
% obs start : 2018/02/11 22:45:51.8 GPST (week1988  81951.8s)
% obs end   : 2018/02/11 23:27:56.6 GPST (week1988  84476.6s)
% pos mode  : single
% elev mask : 15.0 deg
% ionos opt : broadcast
% tropo opt : saastamoinen
% ephemeris : broadcast
%
% (lat/lon/height=WGS84/ellipsoidal,Q=1:fix,2:float,3:sbas,4:dgps,5:single,6:ppp,ns=# of satellites)
%  GPST                  latitude(deg) longitude(deg)  height(m)   Q  ns   sdn(m)   sde(m)   sdu(m)  sdne(m)  sdeu(m)  sdun(m) age(s)  ratio
2018/02/11 22:45:51.800   40.096702468 -105.147431885  1581.6012   5   7   3.0697   2.6822   8.1258   0.8924  -1.1744  -2.1509   0.00    0.0
2018/02/11 22:45:52.000   40.096703854 -105.147447393  1582.7575   5   7   3.0697   2.6822   8.1259   0.8923  -1.1742  -2.1510   0.00    0.0
2018/02/11 22:45:52.200   40.096687516 -105.147449244  1583.3202   5   7   3.0696   2.6822   8.1259   0.8921  -1.1739  -2.1510   0.00    0.0
2018/02/11 22:45:52.400   40.096688884 -105.147448289  1577.9181   5   7   3.0696   2.6822   8.1259   0.8920  -1.1736  -2.1511   0.00    0.0
2018/02/11 22:45:52.600   40.096695347 -105.147444414  1578.7394   5   7   3.0695   2.6823   8.1259   0.8918  -1.1734  -2.1511   0.00    0.0
2018/02/11 22:45:52.800   40.096679772 -105.147443116  1577.0694   5   7   3.0694   2.6823   8.1260   0.8917  -1.1731  -2.1512   0.00    0.0
2018/02/11 22:45:53.000   40.096690265 -105.147447897  1578.1363   5   7   3.0694   2.6823   8.1260   0.8915  -1.1728  -2.1512   0.00    0.0
2018/02/11 22:45:53.200   40.096688833 -105.147443786  1578.6625   5   7   3.0693   2.6823   8.1260   0.8914  -1.1726  -2.1513   0.00    0.0
2018/02/11 22:45:53.400   40.096698095 -105.147436819  1581.7711   5   7   3.0693   2.6823   8.1260   0.8913  -1.1723  -2.1514   0.00    0.0
2018/02/11 22:45:53.600   40.096683349 -105.147436114  1580.5196   5   7   3.0692   2.6823   8.1261   0.8911  -1.1720  -2.1514   0.00    0.0
2018/02/11 22:45:53.800   40.096688199 -105.147440725  1579.0211   5   7   3.0692   2.6823   8.1261   0.8910  -1.1718  -2.1515   0.00    0.0
2018/02/11 22:45:54.000   40.096678855 -105.147432273  1580.0500   5   7   3.0691   2.6823   8.1261   0.8908  -1.1715  -2.1515   0.00    0.0
2018/02/11 22:45:54.200   40.096673164 -105.147438930  1578.4351   5   7   3.0691   2.6823   8.1262   0.8907  -1.1712  -2.1516   0.00    0.0
2018/02/11 22:45:54.400   40.096672967 -105.147435078  1577.1028   5   7   3.0690   2.6823   8.1262   0.8905  -1.1710  -2.1516   0.00    0.0
2018/02/11 22:45:54.600   40.096672880 -105.147442029  1577.2769   5   7   3.0689   2.6823   8.1262   0.8904  -1.1707  -2.1517   0.00    0.0
2018/02/11 22:45:54.800   40.096675074 -105.147442050  1576.1924   5   7   3.0689   2.6823   8.1262   0.8903  -1.1705  -2.1517   0.00    0.0
2018/02/11 22:45:55.000   40.096671579 -105.147437455  1576.2176   5   7   3.0688   2.6823   8.1263   0.8901  -1.1702  -2.1518   0.00    0.0
2018/02/11 22:45:55.200   40.096681150 -105.147443047  1576.4361   5   7   3.0688   2.6823   8.1263   0.8900  -1.1699  -2.1519   0.00    0.0
2018/02/11 22:45:55.400   40.096682890 -105.147441169  1575.8148   5   7   3.0687   2.6823   8.1263   0.8898  -1.1697  -2.1519   0.00    0.0
2018/02/11 22:45:55.600   40.096684077 -105.147441275  1575.7052   5   7   3.0687   2.6823   8.1264   0.8897  -1.1694  -2.1520   0.00    0.0
2018/02/11 22:45:55.800   40.096678626 -105.147443013  1578.4458   5   7   3.0686   2.6823   8.1264   0.8896  -1.1691  -2.1520   0.00    0.0
2018/02/11 22:45:56.000   40.096686416 -105.147448335  1577.7068   5   7   3.0685   2.6823   8.1264   0.8894  -1.1689  -2.1521   0.00    0.0
2018/02/11 22:45:56.200   40.096691297 -105.147444486  1576.5043   5   7   3.0685   2.6823   8.1264   0.8893  -1.1686  -2.1521   0.00    0.0
2018/02/11 22:45:56.400   40.096680593 -105.147443606  1577.6715   5   7   3.0684   2.6823   8.1265   0.8891  -1.1683  -2.1522   0.00    0.0
2018/02/11 22:45:56.600   40.096680854 -105.147441646  1577.5260   5   7   3.0684   2.6823   8.1265   0.8890  -1.1681  -2.1522   0.00    0.0
2018/02/11 22:45:56.800   40.096684583 -105.147437489  1575.5581   5   7   3.0683   2.6823   8.1265   0.8888  -1.1678  -2.1523   0.00    0.0
2018/02/11 22:45:57.000   40.096684250 -105.147440308  1576.9830   5   7   3.0683   2.6824   8.1265   0.8887  -1.1675  -2.1524   0.00    0.0
2018/02/11 22:45:57.200   40.096691973 -105.147441109  1577.8498   5   7   3.0682   2.6824   8.1266   0.8886  -1.1673  -2.1524   0.00    0.0
2018/02/11 22:45:57.400   40.096689416 -105.147442014  1577.1610   5   7   3.0682   2.6824   8.1266   0.8884  -1.1670  -2.1525   0.00    0.0
2018/02/11 22:45:57.600   40.096681655 -105.147439511  1577.3325   5   7   3.0681   2.6824   8.1266   0.8883  -1.1667  -2.1525   0.00    0.0
2018/02/11 22:45:57.800   40.096681406 -105.147433655  1577.6748   5   7   3.0680   2.6824   8.1267   0.8881  -1.1665  -2.1526   0.00    0.0
2018/02/11 22:45:58.000   40.096682641 -105.147434619  1577.2378   5   7   3.0680   2.6824   8.1267   0.8880  -1.1662  -2.1526   0.00    0.0
2018/02/11 22:45:58.200   40.096684646 -105.147438200  1576.5313   5   7   3.0679   2.6824   8.1267   0.8878  -1.1659  -2.1527   0.00    0.0
2018/02/11 22:45:58.400   40.096683252 -105.147437743  1576.5757   5   7   3.0679   2.6824   8.1267   0.8877  -1.1657  -2.1527   0.00    0.0
2018/02/11 22:45:58.600   40.096685380 -105.147438878  1576.8653   5   7   3.0678   2.6824   8.1268   0.8876  -1.1654  -2.1528   0.00    0.0
2018/02/11 22:45:58.800   40.096684949 -105.147439591  1577.0029   5   7   3.0678   2.6824   8.1268   0.8874  -1.1651  -2.1528   0.00    0.0
2018/02/11 22:45:59.000   40.096686020 -105.147439086  1576.6183   5   7   3.0677   2.6824   8.1268   0.8873  -1.1649  -2.1529   0.00    0.0
2018/02/11 22:45:59.200   40.096686458 -105.147438654  1576.7350   5   7   3.0676   2.6824   8.1269   0.8871  -1.1646  -2.1530   0.00    0.0
2018/02/11 22:45:59.400   40.096686778 -105.147438021  1576.7059   5   7   3.0676   2.6824   8.1269   0.8870  -1.1643  -2.1530   0.00    0.0
2018/02/11 22:45:59.600   40.096686988 -105.147439559  1576.8895   5   7   3.0675   2.6824   8.1269   0.8868  -1.1641  -2.1531   0.00    0.0
2018/02/11 22:45:59.800   40.096686364 -105.147441769  1577.2433   5   7   3.0675   2.6824   8.1269   0.8867  -1.1638  -2.1531   0.00    0.0
2018/02/11 22:46:00.000   40.096686267 -105.147444828  1577.1051   5   7   3.0674   2.6824   8.1270   0.8866  -1.1635  -2.1532   0.00    0.0
2018/02/11 22:46:00.200   40.096678894 -105.147440462  1576.1072   5   7   3.0674   2.6824   8.1270   0.8864  -1.1632  -2.1532   0.00    0.0
2018/02/11 22:46:00.400   40.096686794 -105.147445919  1577.4580   5   7   3.0673   2.6824   8.1270   0.8863  -1.1630  -2.1533   0.00    0.0
2018/02/11 22:46:00.600   40.096705963 -105.147455220  1580.1431   5   7   3.0673   2.6824   8.1270   0.8861  -1.1627  -2.1534   0.00    0.0
2018/02/11 22:46:00.800   40.096707013 -105.147455465  1580.1186   5   7   3.0672   2.6824   8.1271   0.8860  -1.1624  -2.1534   0.00    0.0
2018/02/11 22:46:01.000   40.096675522 -105.147445007  1576.5670   5   7   3.0671   2.6824   8.1271   0.8858  -1.1622  -2.1535   0.00    0.0
2018/02/11 22:46:01.200   40.096672496 -105.147447856  1577.0441   5   7   3.0671   2.6825   8.1271   0.8857  -1.1619  -2.1535   0.00    0.0
2018/02/11 22:46:01.400   40.096669978 -105.147450931  1577.2018   5   7   3.0670   2.6825   8.1272   0.8856  -1.1616  -2.1536   0.00    0.0
2018/02/11 22:46:01.600   40.096671411 -105.147456356  1577.6717   5   7   3.0670   2.6825   8.1272   0.8854  -1.1614  -2.1536   0.00    0.0
2018/02/11 22:46:01.800   40.096665048 -105.147457732  1577.0742   5   7   3.0669   2.6825   8.1272   0.8853  -1.1611  -2.1537   0.00    0.0
2018/02/11 22:46:02.000   40.096681164 -105.147470502  1579.3052   5   7   3.0669   2.6825   8.1272   0.8851  -1.1608  -2.1537   0.00    0.0
2018/02/11 22:46:02.200   40.096682306 -105.147474770  1579.6016   5   7   3.0668   2.6825   8.1273   0.8850  -1.1606  -2.1538   0.00    0.0
2018/02/11 22:46:02.400   40.096665237 -105.147472062  1577.7722   5   7   3.0667   2.6825   8.1273   0.8848  -1.1603  -2.1538   0.00    0.0
2018/02/11 22:46:02.600   40.096647362 -105.147470748  1575.9053   5   7   3.0667   2.6825   8.1273   0.8847  -1.1600  -2.1539   0.00    0.0
2018/02/11 22:46:02.800   40.096658319 -105.147480377  1576.9709   5   7   3.0666   2.6825   8.1273   0.8846  -1.1597  -2.1540   0.00    0.0
2018/02/11 22:46:03.000   40.096643252 -105.147479337  1575.0029   5   7   3.0666   2.6825   8.1274   0.8844  -1.1595  -2.1540   0.00    0.0
2018/02/11 22:46:03.200   40.096641766 -105.147485208  1575.5094   5   7   3.0665   2.6825   8.1274   0.8843  -1.1592  -2.1541   0.00    0.0
2018/02/11 22:46:03.400   40.096635127 -105.147489476  1575.0116   5   7   3.0665   2.6825   8.1274   0.8841  -1.1589  -2.1541   0.00    0.0
2018/02/11 22:46:03.600   40.096644105 -105.147500441  1576.0137   5   7   3.0664   2.6825   8.1274   0.8840  -1.1587  -2.1542   0.00    0.0
2018/02/11 22:46:03.800   40.096639156 -105.147505632  1574.3976   5   7   3.0664   2.6825   8.1275   0.8838  -1.1584  -2.1542   0.00    0.0
2018/02/11 22:46:04.000   40.096634412 -105.147507270  1573.9590   5   7   3.0663   2.6825   8.1275   0.8837  -1.1581  -2.1543   0.00    0.0
2018/02/11 22:46:04.200   40.096637713 -105.147505851  1575.9401   5   7   3.0662   2.6825   8.1275   0.8835  -1.1579  -2.1543   0.00    0.0
2018/02/11 22:46:04.400   40.096635942 -105.147520350  1574.6958   5   7   3.0662   2.6825   8.1276   0.8834  -1.1576  -2.1544   0.00    0.0
2018/02/11 22:46:04.600   40.096635760 -105.147522236  1575.3380   5   7   3.0661   2.6825   8.1276   0.8833  -1.1573  -2.1544   0.00    0.0
2018/02/11 22:46:04.800   40.096645622 -105.147532986  1576.5311   5   7   3.0661   2.6825   8.1276   0.8831  -1.1570  -2.1545   0.00    0.0
2018/02/11 22:46:05.000   40.096646465 -105.147531161  1576.8416   5   7   3.0660   2.6825   8.1276   0.8830  -1.1568  -2.1546   0.00    0.0
2018/02/11 22:46:05.200   40.096642492 -105.147539883  1575.6330   5   7   3.0660   2.6826   8.1277   0.8828  -1.1565  -2.1546   0.00    0.0
2018/02/11 22:46:05.400   40.096651347 -105.147549593  1576.0704   5   7   3.0659   2.6826   8.1277   0.8827  -1.1562  -2.1547   0.00    0.0
2018/02/11 22:46:05.600   40.096655752 -105.147556372  1576.3238   5   7   3.0659   2.6826   8.1277   0.8825  -1.1559  -2.1547   0.00    0.0
2018/02/11 22:46:05.800   40.096659896 -105.147558001  1576.6847   5   7   3.0658   2.6826   8.1277   0.8824  -1.1557  -2.1548   0.00    0.0
2018/02/11 22:46:06.000   40.096657042 -105.147554886  1576.3575   5   7   3.0657   2.6826   8.1278   0.8823  -1.1554  -2.1548   0.00    0.0
2018/02/11 22:46:06.200   40.096661594 -105.147565592  1575.9574   5   7   3.0657   2.6826   8.1278   0.8821  -1.1551  -2.1549   0.00    0.0
2018/02/11 22:46:06.400   40.096667452 -105.147567371  1575.7698   5   7   3.0656   2.6826   8.1278   0.8820  -1.1549  -2.1550   0.00    0.0
2018/02/11 22:46:06.600   40.096676702 -105.147571025  1576.0052   5   7   3.0656   2.6826   8.1279   0.8818  -1.1546  -2.1550   0.00    0.0
2018/02/11 22:46:06.800   40.096679401 -105.147575820  1575.2669   5   7   3.0655   2.6826   8.1279   0.8817  -1.1543  -2.1551   0.00    0.0
2018/02/11 22:46:07.000   40.096681294 -105.147575784  1575.0637   5   7   3.0655   2.6826   8.1279   0.8815  -1.1540  -2.1551   0.00    0.0
2018/02/11 22:46:07.200   40.096687345 -105.147576257  1574.7878   5   7   3.0654   2.6826   8.1279   0.8814  -1.1538  -2.1552   0.00    0.0
2018/02/11 22:46:07.400   40.096694828 -105.147580467  1574.7599   5   7   3.0654   2.6826   8.1280   0.8813  -1.1535  -2.1552   0.00    0.0
2018/02/11 22:46:07.600   40.096706131 -105.147583923  1575.4685   5   7   3.0653   2.6826   8.1280   0.8811  -1.1532  -2.1553   0.00    0.0
2018/02/11 22:46:07.800   40.096707229 -105.147583909  1574.1066   5   7   3.0652   2.6826   8.1280   0.8810  -1.1530  -2.1554   0.00    0.0
2018/02/11 22:46:08.000   40.096720136 -105.147586303  1575.0425   5   7   3.0652   2.6826   8.1280   0.8808  -1.1527  -2.1554   0.00    0.0
2018/02/11 22:46:08.200   40.096735019 -105.147584623  1576.6704   5   7   3.0651   2.6826   8.1281   0.8807  -1.1524  -2.1555   0.00    0.0
2018/02/11 22:46:08.400   40.096736947 -105.147585456  1576.0041   5   7   3.0651   2.6826   8.1281   0.8805  -1.1521  -2.1555   0.00    0.0
2018/02/11 22:46:08.600   40.096747472 -105.147581692  1577.8253   5   7   3.0650   2.6826   8.1281   0.8804  -1.1519  -2.1556   0.00    0.0
2018/02/11 22:46:08.800   40.096763070 -105.147565887  1582.3797   5   7   3.0650   2.6826   8.1281   0.8802  -1.1516  -2.1557   0.00    0.0
2018/02/11 22:46:09.000   40.096765332 -105.147579659  1578.4589   5   7   3.0649   2.6826   8.1282   0.8801  -1.1513  -2.1557   0.00    0.0
2018/02/11 22:46:09.200   40.096770935 -105.147585813  1576.5110   5   7   3.0649   2.6826   8.1282   0.8800  -1.1510  -2.1558   0.00    0.0
2018/02/11 22:46:09.400   40.096785009 -105.147578150  1579.5491   5   7   3.0648   2.6827   8.1282   0.8798  -1.1508  -2.1558   0.00    0.0
2018/02/11 22:46:09.600   40.096789610 -105.147589916  1576.0370   5   6   3.3140   3.3044  10.7002   1.7907   3.4789   2.0312   0.00    0.0
2018/02/11 22:46:09.800   40.096796986 -105.147591188  1575.3745   5   6   3.3138   3.3045  10.7000   1.7905   3.4790   2.0308   0.00    0.0
2018/02/11 22:46:10.000   40.096807810 -105.147590506  1575.5587   5   6   3.3137   3.3045  10.6999   1.7904   3.4791   2.0304   0.00    0.0
2018/02/11 22:46:10.200   40.096818637 -105.147588259  1575.6679   5   6   3.3136   3.3046  10.6997   1.7903   3.4792   2.0300   0.00    0.0
2018/02/11 22:46:10.400   40.096828607 -105.147588052  1575.5809   5   6   3.3135   3.3046  10.6996   1.7901   3.4793   2.0296   0.00    0.0
2018/02/11 22:46:10.600   40.096834323 -105.147597808  1572.7046   5   7   3.0645   2.6827   8.1284   0.8789  -1.1491  -2.1562   0.00    0.0
2018/02/11 22:46:10.800   40.096849763 -105.147589577  1575.4144   5   7   3.0644   2.6827   8.1284   0.8788  -1.1489  -2.1562   0.00    0.0
2018/02/11 22:46:11.000   40.096860885 -105.147587422  1575.9269   5   7   3.0644   2.6827   8.1284   0.8787  -1.1486  -2.1563   0.00    0.0
2018/02/11 22:46:11.200   40.096867425 -105.147595029  1573.4423   5   7   3.0643   2.6827   8.1285   0.8785  -1.1483  -2.1563   0.00    0.0
2018/02/11 22:46:11.400   40.096877541 -105.147592123  1574.0180   5   7   3.0642   2.6827   8.1285   0.8784  -1.1480  -2.1564   0.00    0.0
2018/02/11 22:46:11.600   40.096887359 -105.147592867  1573.5225   5   7   3.0642   2.6827   8.1285   0.8782  -1.1478  -2.1565   0.00    0.0
2018/02/11 22:46:11.800   40.096894488 -105.147594511  1572.6574   5   7   3.0641   2.6827   8.1285   0.8781  -1.1475  -2.1565   0.00    0.0
2018/02/11 22:46:12.000   40.096903338 -105.147592960  1572.8845   5   7   3.0641   2.6827   8.1286   0.8779  -1.1472  -2.1566   0.00    0.0
2018/02/11 22:46:12.200   40.096910717 -105.147593958  1572.7895   5   7   3.0640   2.6827   8.1286   0.8778  -1.1469  -2.1566   0.00    0.0
2018/02/11 22:46:12.400   40.096924166 -105.147585638  1575.5758   5   7   3.0640   2.6827   8.1286   0.8777  -1.1467  -2.1567   0.00    0.0
2018/02/11 22:46:12.600   40.096929334 -105.147589891  1574.2131   5   7   3.0639   2.6827   8.1286   0.8775  -1.1464  -2.1568   0.00    0.0
2018/02/11 22:46:12.800   40.096935930 -105.147594185  1572.4830   5   7   3.0639   2.6827   8.1287   0.8774  -1.1461  -2.1568   0.00    0.0
2018/02/11 22:46:13.000   40.096946308 -105.147589189  1573.5970   5   7   3.0638   2.6827   8.1287   0.8772  -1.1459  -2.1569   0.00    0.0
2018/02/11 22:46:13.200   40.096952407 -105.147591490  1572.4210   5   7   3.0638   2.6827   8.1287   0.8771  -1.1456  -2.1569   0.00    0.0
2018/02/11 22:46:13.400   40.096963264 -105.147587040  1573.6672   5   7   3.0637   2.6828   8.1287   0.8769  -1.1453  -2.1570   0.00    0.0
2018/02/11 22:46:13.600   40.096969356 -105.147589465  1572.1837   5   7   3.0636   2.6828   8.1288   0.8768  -1.1450  -2.1570   0.00    0.0
2018/02/11 22:46:13.800   40.096978605 -105.147582418  1573.5440   5   7   3.0636   2.6828   8.1288   0.8766  -1.1448  -2.1571   0.00    0.0
2018/02/11 22:46:14.000   40.096986263 -105.147581647  1572.7067   5   7   3.0635   2.6828   8.1288   0.8765  -1.1445  -2.1572   0.00    0.0
2018/02/11 22:46:14.200   40.096995035 -105.147576621  1573.2575   5   7   3.0635   2.6828   8.1289   0.8764  -1.1442  -2.1572   0.00    0.0
2018/02/11 22:46:14.400   40.097001645 -105.147574564  1572.7122   5   7   3.0634   2.6828   8.1289   0.8762  -1.1439  -2.1573   0.00    0.0
2018/02/11 22:46:14.600   40.097008414 -105.147572048  1572.0490   5   7   3.0634   2.6828   8.1289   0.8761  -1.1437  -2.1573   0.00    0.0
2018/02/11 22:46:14.800   40.097016895 -105.147562420  1573.8575   5   7   3.0633   2.6828   8.1289   0.8759  -1.1434  -2.1574   0.00    0.0
2018/02/11 22:46:15.000   40.097022782 -105.147559378  1572.7920   5   7   3.0633   2.6828   8.1290   0.8758  -1.1431  -2.1574   0.00    0.0
2018/02/11 22:46:15.200   40.097029148 -105.147550623  1573.4960   5   7   3.0632   2.6828   8.1290   0.8756  -1.1428  -2.1575   0.00    0.0
2018/02/11 22:46:15.400   40.097032309 -105.147546335  1572.4569   5   7   3.0631   2.6828   8.1290   0.8755  -1.1426  -2.1576   0.00    0.0
2018/02/11 22:46:15.600   40.097037974 -105.147535187  1573.2183   5   7   3.0631   2.6828   8.1290   0.8753  -1.1423  -2.1576   0.00    0.0
2018/02/11 22:46:15.800   40.097042379 -105.147526844  1573.3918   5   7   3.0630   2.6828   8.1291   0.8752  -1.1420  -2.1577   0.00    0.0
2018/02/11 22:46:16.000   40.097045219 -105.147517825  1572.9118   5   7   3.0630   2.6828   8.1291   0.8751  -1.1418  -2.1577   0.00    0.0
2018/02/11 22:46:16.200   40.097048589 -105.147505595  1573.6189   5   7   3.0629   2.6828   8.1291   0.8749  -1.1415  -2.1578   0.00    0.0
2018/02/11 22:46:16.400   40.097050989 -105.147496298  1574.0583   5   7   3.0629   2.6828   8.1291   0.8748  -1.1412  -2.1578   0.00    0.0
2018/02/11 22:46:16.600   40.097051713 -105.147487810  1573.3718   5   7   3.0628   2.6828   8.1292   0.8746  -1.1409  -2.1579   0.00    0.0
2018/02/11 22:46:16.800   40.097052742 -105.147478518  1573.5065   5   7   3.0628   2.6828   8.1292   0.8745  -1.1407  -2.1580   0.00    0.0
2018/02/11 22:46:17.000   40.097054157 -105.147468714  1573.2814   5   7   3.0627   2.6828   8.1292   0.8743  -1.1404  -2.1580   0.00    0.0
2018/02/11 22:46:17.200   40.097055093 -105.147457964  1573.1780   5   7   3.0626   2.6829   8.1292   0.8742  -1.1401  -2.1581   0.00    0.0
2018/02/11 22:46:17.400   40.097053785 -105.147449207  1573.2352   5   7   3.0626   2.6829   8.1293   0.8740  -1.1398  -2.1581   0.00    0.0
2018/02/11 22:46:17.600   40.097054624 -105.147439399  1573.0376   5   7   3.0625   2.6829   8.1293   0.8739  -1.1396  -2.1582   0.00    0.0
2018/02/11 22:46:17.800   40.097053269 -105.147430529  1573.5999   5   7   3.0625   2.6829   8.1293   0.8738  -1.1393  -2.1582   0.00    0.0
2018/02/11 22:46:18.000   40.097052476 -105.147421519  1573.5420   5   7   3.0624   2.6829   8.1293   0.8736  -1.1390  -2.1583   0.00    0.0
2018/02/11 22:46:18.200   40.097051933 -105.147410888  1573.5853   5   7   3.0624   2.6829   8.1294   0.8735  -1.1388  -2.1583   0.00    0.0
2018/02/11 22:46:18.400   40.097050558 -105.147401218  1573.6473   5   7   3.0623   2.6829   8.1294   0.8733  -1.1385  -2.1584   0.00    0.0
2018/02/11 22:46:18.600   40.097048783 -105.147392452  1573.6783   5   7   3.0623   2.6829   8.1294   0.8732  -1.1382  -2.1585   0.00    0.0
2018/02/11 22:46:18.800   40.097048061 -105.147382832  1573.7164   5   7   3.0622   2.6829   8.1294   0.8730  -1.1379  -2.1585   0.00    0.0
2018/02/11 22:46:19.000   40.097046721 -105.147373709  1573.4774   5   7   3.0621   2.6829   8.1295   0.8729  -1.1377  -2.1586   0.00    0.0
2018/02/11 22:46:19.200   40.097045104 -105.147363707  1573.7173   5   7   3.0621   2.6829   8.1295   0.8727  -1.1374  -2.1586   0.00    0.0
2018/02/11 22:46:19.400   40.097044304 -105.147355245  1573.5140   5   7   3.0620   2.6829   8.1295   0.8726  -1.1371  -2.1587   0.00    0.0
2018/02/11 22:46:19.600   40.097043622 -105.147348689  1573.5648   5   7   3.0620   2.6829   8.1295   0.8725  -1.1368  -2.1587   0.00    0.0
2018/02/11 22:46:19.800   40.097042896 -105.147340468  1573.5643   5   7   3.0619   2.6829   8.1296   0.8723  -1.1366  -2.1588   0.00    0.0
2018/02/11 22:46:20.000   40.097042172 -105.147333325  1573.6711   5   7   3.0619   2.6829   8.1296   0.8722  -1.1363  -2.1588   0.00    0.0
2018/02/11 22:46:20.200   40.097041149 -105.147327409  1573.7012   5   7   3.0618   2.6829   8.1296   0.8720  -1.1360  -2.1589   0.00    0.0
2018/02/11 22:46:20.400   40.097040703 -105.147322040  1573.6592   5   7   3.0618   2.6829   8.1296   0.8719  -1.1357  -2.1590   0.00    0.0
2018/02/11 22:46:20.600   40.097040284 -105.147316560  1573.6965   5   7   3.0617   2.6829   8.1297   0.8717  -1.1355  -2.1590   0.00    0.0
2018/02/11 22:46:20.800   40.097040373 -105.147312344  1573.2583   5   7   3.0616   2.6829   8.1297   0.8716  -1.1352  -2.1591   0.00    0.0
2018/02/11 22:46:21.000   40.097039638 -105.147307205  1573.3562   5   7   3.0616   2.6830   8.1297   0.8714  -1.1349  -2.1591   0.00    0.0
2018/02/11 22:46:21.200   40.097039964 -105.147304561  1573.0432   5   7   3.0615   2.6830   8.1298   0.8713  -1.1346  -2.1592   0.00    0.0
2018/02/11 22:46:21.400   40.097039555 -105.147301228  1573.0436   5   7   3.0615   2.6830   8.1298   0.8712  -1.1344  -2.1592   0.00    0.0
2018/02/11 22:46:21.600   40.097039766 -105.147298828  1573.0946   5   7   3.0614   2.6830   8.1298   0.8710  -1.1341  -2.1593   0.00    0.0
2018/02/11 22:46:21.800   40.097038852 -105.147296488  1573.2694   5   7   3.0614   2.6830   8.1298   0.8709  -1.1338  -2.1594   0.00    0.0
2018/02/11 22:46:22.000   40.097038626 -105.147294115  1573.6543   5   7   3.0613   2.6830   8.1299   0.8707  -1.1335  -2.1594   0.00    0.0
2018/02/11 22:46:22.200   40.097038227 -105.147290988  1573.8860   5   7   3.0613   2.6830   8.1299   0.8706  -1.1333  -2.1595   0.00    0.0
2018/02/11 22:46:22.400   40.097038533 -105.147288254  1573.3887   5   7   3.0612   2.6830   8.1299   0.8704  -1.1330  -2.1595   0.00    0.0
2018/02/11 22:46:22.600   40.097037542 -105.147287711  1573.8180   5   7   3.0611   2.6830   8.1299   0.8703  -1.1327  -2.1596   0.00    0.0
2018/02/11 22:46:22.800   40.097038170 -105.147286248  1573.5796   5   7   3.0611   2.6830   8.1300   0.8701  -1.1324  -2.1596   0.00    0.0
2018/02/11 22:46:23.000   40.097037917 -105.147286146  1573.2451   5   7   3.0610   2.6830   8.1300   0.8700  -1.1321  -2.1597   0.00    0.0
2018/02/11 22:46:23.200   40.097037869 -105.147286728  1573.3779   5   7   3.0610   2.6830   8.1300   0.8698  -1.1319  -2.1597   0.00    0.0
2018/02/11 22:46:23.400   40.097037770 -105.147286739  1573.1963   5   7   3.0609   2.6830   8.1300   0.8697  -1.1316  -2.1598   0.00    0.0
2018/02/11 22:46:23.600   40.097038141 -105.147287096  1572.8296   5   7   3.0609   2.6830   8.1301   0.8696  -1.1313  -2.1599   0.00    0.0
2018/02/11 22:46:23.800   40.097038528 -105.147287304  1572.7270   5   7   3.0608   2.6830   8.1301   0.8694  -1.1310  -2.1599   0.00    0.0
2018/02/11 22:46:24.000   40.097038804 -105.147288003  1572.8468   5   7   3.0608   2.6830   8.1301   0.8693  -1.1308  -2.1600   0.00    0.0
2018/02/11 22:46:24.200   40.097037905 -105.147287680  1572.9314   5   7   3.0607   2.6830   8.1301   0.8691  -1.1305  -2.1600   0.00    0.0
2018/02/11 22:46:24.400   40.097038115 -105.147288068  1572.8299   5   7   3.0607   2.6830   8.1302   0.8690  -1.1302  -2.1601   0.00    0.0
2018/02/11 22:46:24.600   40.097038206 -105.147288047  1572.6719   5   7   3.0606   2.6830   8.1302   0.8688  -1.1299  -2.1601   0.00    0.0
2018/02/11 22:46:24.800   40.097038093 -105.147288300  1572.7123   5   7   3.0605   2.6831   8.1302   0.8687  -1.1296  -2.1602   0.00    0.0
2018/02/11 22:46:25.000   40.097037476 -105.147288474  1572.6451   5   7   3.0605   2.6831   8.1302   0.8685  -1.1294  -2.1603   0.00    0.0
2018/02/11 22:46:25.200   40.097037205 -105.147288193  1572.6059   5   7   3.0604   2.6831   8.1303   0.8684  -1.1291  -2.1603   0.00    0.0
2018/02/11 22:46:25.400   40.097037077 -105.147287774  1572.6702   5   7   3.0604   2.6831   8.1303   0.8682  -1.1288  -2.1604   0.00    0.0
2018/02/11 22:46:25.600   40.097037911 -105.147287669  1572.4635   5   7   3.0603   2.6831   8.1303   0.8681  -1.1285  -2.1604   0.00    0.0
2018/02/11 22:46:25.800   40.097038071 -105.147287000  1572.4383   5   7   3.0603   2.6831   8.1303   0.8680  -1.1282  -2.1605   0.00    0.0
2018/02/11 22:46:26.000   40.097042889 -105.147275989  1575.9488   5   6   3.3048   3.3082  10.6879   1.7798   3.4862   1.9970   0.00    0.0
2018/02/11 22:46:26.200   40.097043507 -105.147275148  1575.8948   5   6   3.3047   3.3082  10.6877   1.7797   3.4863   1.9966   0.00    0.0
2018/02/11 22:46:26.400   40.097044092 -105.147275333  1575.9886   5   6   3.3046   3.3083  10.6876   1.7795   3.4863   1.9962   0.00    0.0
2018/02/11 22:46:26.600   40.097043761 -105.147275969  1575.5665   5   6   3.3045   3.3083  10.6874   1.7794   3.4864   1.9957   0.00    0.0
2018/02/11 22:46:26.800   40.097042782 -105.147276300  1575.4639   5   6   3.3043   3.3084  10.6873   1.7793   3.4865   1.9953   0.00    0.0
2018/02/11 22:46:27.000   40.097036676 -105.147289126  1571.9510   5   7   3.0599   2.6831   8.1305   0.8671  -1.1266  -2.1608   0.00    0.0
2018/02/11 22:46:27.200   40.097036532 -105.147290794  1572.3594   5   7   3.0599   2.6831   8.1305   0.8669  -1.1263  -2.1609   0.00    0.0
2018/02/11 22:46:27.400   40.097036689 -105.147290348  1572.2690   5   7   3.0598   2.6831   8.1305   0.8668  -1.1260  -2.1609   0.00    0.0
2018/02/11 22:46:27.600   40.097035838 -105.147290678  1572.1064   5   7   3.0598   2.6831   8.1306   0.8666  -1.1257  -2.1610   0.00    0.0
2018/02/11 22:46:27.800   40.097036202 -105.147292191  1572.0933   5   7   3.0597   2.6831   8.1306   0.8665  -1.1254  -2.1610   0.00    0.0
2018/02/11 22:46:28.000   40.097035361 -105.147292049  1572.0803   5   7   3.0597   2.6831   8.1306   0.8664  -1.1252  -2.1611   0.00    0.0
2018/02/11 22:46:28.200   40.097035475 -105.147292145  1572.2092   5   7   3.0596   2.6831   8.1306   0.8662  -1.1249  -2.1612   0.00    0.0
2018/02/11 22:46:28.400   40.097035719 -105.147291733  1572.1093   5   7   3.0596   2.6831   8.1306   0.8661  -1.1246  -2.1612   0.00    0.0
2018/02/11 22:46:28.600   40.097036592 -105.147291554  1572.0941   5   7   3.0595   2.6832   8.1307   0.8659  -1.1243  -2.1613   0.00    0.0
2018/02/11 22:46:28.800   40.097036089 -105.147291466  1572.0323   5   7   3.0594   2.6832   8.1307   0.8658  -1.1240  -2.1613   0.00    0.0
2018/02/11 22:46:29.000   40.097036392 -105.147291332  1571.9536   5   7   3.0594   2.6832   8.1307   0.8656  -1.1238  -2.1614   0.00    0.0
2018/02/11 22:46:29.200   40.097036154 -105.147290156  1571.8600   5   7   3.0593   2.6832   8.1307   0.8655  -1.1235  -2.1614   0.00    0.0
2018/02/11 22:46:29.400   40.097036102 -105.147290387  1571.7995   5   7   3.0593   2.6832   8.1308   0.8653  -1.1232  -2.1615   0.00    0.0
2018/02/11 22:46:29.600   40.097036471 -105.147290781  1571.5893   5   7   3.0592   2.6832   8.1308   0.8652  -1.1229  -2.1616   0.00    0.0
2018/02/11 22:46:29.800   40.097036136 -105.147290706  1571.4183   5   7   3.0592   2.6832   8.1308   0.8650  -1.1226  -2.1616   0.00    0.0
2018/02/11 22:46:30.000   40.097035504 -105.147290469  1571.2932   5   7   3.0591   2.6832   8.1308   0.8649  -1.1224  -2.1617   0.00    0.0
2018/02/11 22:46:30.200   40.097034932 -105.147290713  1571.5737   5   7   3.0591   2.6832   8.1309   0.8648  -1.1221  -2.1617   0.00    0.0
2018/02/11 22:46:30.400   40.097034087 -105.147289887  1571.5415   5   7   3.0590   2.6832   8.1309   0.8646  -1.1218  -2.1618   0.00    0.0
2018/02/11 22:46:30.600   40.097034152 -105.147290801  1571.7750   5   7   3.0589   2.6832   8.1309   0.8645  -1.1215  -2.1618   0.00    0.0
2018/02/11 22:46:30.800   40.097033754 -105.147290174  1571.6965   5   7   3.0589   2.6832   8.1309   0.8643  -1.1212  -2.1619   0.00    0.0
2018/02/11 22:46:31.000   40.097034265 -105.147289432  1571.7417   5   7   3.0588   2.6832   8.1310   0.8642  -1.1209  -2.1619   0.00    0.0
2018/02/11 22:46:31.200   40.097033948 -105.147288913  1571.6227   5   7   3.0588   2.6832   8.1310   0.8640  -1.1207  -2.1620   0.00    0.0
2018/02/11 22:46:31.400   40.097033893 -105.147287953  1571.5183   5   7   3.0587   2.6832   8.1310   0.8639  -1.1204  -2.1621   0.00    0.0
2018/02/11 22:46:31.600   40.097034143 -105.147288639  1571.6526   5   7   3.0587   2.6832   8.1310   0.8637  -1.1201  -2.1621   0.00    0.0
2018/02/11 22:46:31.800   40.097034247 -105.147288731  1571.4707   5   7   3.0586   2.6832   8.1311   0.8636  -1.1198  -2.1622   0.00    0.0
2018/02/11 22:46:32.000   40.097034191 -105.147289570  1571.4243   5   7   3.0586   2.6832   8.1311   0.8634  -1.1195  -2.1622   0.00    0.0
2018/02/11 22:46:32.200   40.097034359 -105.147289749  1571.6125   5   7   3.0585   2.6833   8.1311   0.8633  -1.1192  -2.1623   0.00    0.0
2018/02/11 22:46:32.400   40.097033996 -105.147290144  1571.7238   5   7   3.0585   2.6833   8.1311   0.8631  -1.1190  -2.1623   0.00    0.0
2018/02/11 22:46:32.600   40.097034333 -105.147290339  1571.4390   5   7   3.0584   2.6833   8.1312   0.8630  -1.1187  -2.1624   0.00    0.0
2018/02/11 22:46:32.800   40.097034968 -105.147290206  1571.2234   5   7   3.0583   2.6833   8.1312   0.8629  -1.1184  -2.1625   0.00    0.0
2018/02/11 22:46:33.000   40.097035064 -105.147290111  1571.2938   5   7   3.0583   2.6833   8.1312   0.8627  -1.1181  -2.1625   0.00    0.0
2018/02/11 22:46:33.200   40.097034786 -105.147289734  1571.3963   5   7   3.0582   2.6833   8.1312   0.8626  -1.1178  -2.1626   0.00    0.0
2018/02/11 22:46:33.400   40.097033972 -105.147289504  1571.2211   5   7   3.0582   2.6833   8.1313   0.8624  -1.1176  -2.1626   0.00    0.0
2018/02/11 22:46:33.600   40.097033921 -105.147288554  1571.2511   5   7   3.0581   2.6833   8.1313   0.8623  -1.1173  -2.1627   0.00    0.0
2018/02/11 22:46:33.800   40.097033927 -105.147287042  1571.1439   5   7   3.0581   2.6833   8.1313   0.8621  -1.1170  -2.1627   0.00    0.0
2018/02/11 22:46:34.000   40.097033613 -105.147287404  1571.3645   5   7   3.0580   2.6833   8.1313   0.8620  -1.1167  -2.1628   0.00    0.0
2018/02/11 22:46:34.200   40.097033573 -105.147287403  1571.4826   5   7   3.0580   2.6833   8.1314   0.8618  -1.1164  -2.1629   0.00    0.0
2018/02/11 22:46:34.400   40.097032718 -105.147287619  1571.8628   5   7   3.0579   2.6833   8.1314   0.8617  -1.1161  -2.1629   0.00    0.0
2018/02/11 22:46:34.600   40.097033016 -105.147287613  1571.7277   5   7   3.0579   2.6833   8.1314   0.8615  -1.1158  -2.1630   0.00    0.0
2018/02/11 22:46:34.800   40.097033087 -105.147288110  1571.6710   5   7   3.0578   2.6833   8.1314   0.8614  -1.1156  -2.1630   0.00    0.0
2018/02/11 22:46:35.000   40.097033436 -105.147287574  1571.5779   5   7   3.0577   2.6833   8.1315   0.8612  -1.1153  -2.1631   0.00    0.0
2018/02/11 22:46:35.200   40.097033609 -105.147287913  1571.1881   5   7   3.0577   2.6833   8.1315   0.8611  -1.1150  -2.1631   0.00    0.0
2018/02/11 22:46:35.400   40.097033906 -105.147287705  1571.2787   5   7   3.0576   2.6833   8.1315   0.8609  -1.1147  -2.1632   0.00    0.0
2018/02/11 22:46:35.600   40.097033795 -105.147287556  1571.3820   5   7   3.0576   2.6833   8.1315   0.8608  -1.1144  -2.1633   0.00    0.0
2018/02/11 22:46:35.800   40.097034149 -105.147287081  1571.3726   5   7   3.0575   2.6834   8.1315   0.8607  -1.1141  -2.1633   0.00    0.0
2018/02/11 22:46:36.000   40.097034251 -105.147287807  1571.2926   5   7   3.0575   2.6834   8.1316   0.8605  -1.1139  -2.1634   0.00    0.0
2018/02/11 22:46:36.200   40.097033388 -105.147287306  1571.2346   5   7   3.0574   2.6834   8.1316   0.8604  -1.1136  -2.1634   0.00    0.0
2018/02/11 22:46:36.400   40.097033705 -105.147287711  1571.2452   5   7   3.0574   2.6834   8.1316   0.8602  -1.1133  -2.1635   0.00    0.0
2018/02/11 22:46:36.600   40.097033677 -105.147287825  1571.4314   5   7   3.0573   2.6834   8.1316   0.8601  -1.1130  -2.1635   0.00    0.0
2018/02/11 22:46:36.800   40.097033415 -105.147287097  1571.3064   5   7   3.0573   2.6834   8.1317   0.8599  -1.1127  -2.1636   0.00    0.0
2018/02/11 22:46:37.000   40.097033675 -105.147286553  1571.0828   5   7   3.0572   2.6834   8.1317   0.8598  -1.1124  -2.1637   0.00    0.0
2018/02/11 22:46:37.200   40.097034112 -105.147285757  1571.0706   5   7   3.0571   2.6834   8.1317   0.8596  -1.1122  -2.1637   0.00    0.0
2018/02/11 22:46:37.400   40.097034073 -105.147285063  1571.2012   5   7   3.0571   2.6834   8.1317   0.8595  -1.1119  -2.1638   0.00    0.0
2018/02/11 22:46:37.600   40.097034041 -105.147285039  1571.1354   5   7   3.0570   2.6834   8.1318   0.8593  -1.1116  -2.1638   0.00    0.0
2018/02/11 22:46:37.800   40.097034018 -105.147284865  1571.1698   5   7   3.0570   2.6834   8.1318   0.8592  -1.1113  -2.1639   0.00    0.0
2018/02/11 22:46:38.000   40.097034320 -105.147284862  1571.1674   5   7   3.0569   2.6834   8.1318   0.8590  -1.1110  -2.1639   0.00    0.0
2018/02/11 22:46:38.200   40.097033823 -105.147284101  1571.2165   5   7   3.0569   2.6834   8.1318   0.8589  -1.1107  -2.1640   0.00    0.0
2018/02/11 22:46:38.400   40.097033136 -105.147283461  1571.1472   5   7   3.0568   2.6834   8.1319   0.8587  -1.1104  -2.1640   0.00    0.0
2018/02/11 22:46:38.600   40.097033472 -105.147283837  1571.3668   5   7   3.0568   2.6834   8.1319   0.8586  -1.1102  -2.1641   0.00    0.0
2018/02/11 22:46:38.800   40.097033981 -105.147285482  1571.4406   5   7   3.0567   2.6834   8.1319   0.8585  -1.1099  -2.1642   0.00    0.0
2018/02/11 22:46:39.000   40.097034321 -105.147285040  1571.1404   5   7   3.0567   2.6834   8.1319   0.8583  -1.1096  -2.1642   0.00    0.0
2018/02/11 22:46:39.200   40.097033135 -105.147285862  1571.3474   5   7   3.0566   2.6834   8.1320   0.8582  -1.1093  -2.1643   0.00    0.0
2018/02/11 22:46:39.400   40.097032985 -105.147285951  1571.2823   5   7   3.0565   2.6835   8.1320   0.8580  -1.1090  -2.1643   0.00    0.0
2018/02/11 22:46:39.600   40.097033598 -105.147286502  1571.4944   5   7   3.0565   2.6835   8.1320   0.8579  -1.1087  -2.1644   0.00    0.0
2018/02/11 22:46:39.800   40.097033756 -105.147286201  1571.3989   5   7   3.0564   2.6835   8.1320   0.8577  -1.1084  -2.1644   0.00    0.0
2018/02/11 22:46:40.000   40.097033819 -105.147286230  1571.6066   5   7   3.0564   2.6835   8.1320   0.8576  -1.1081  -2.1645   0.00    0.0
2018/02/11 22:46:40.200   40.097033598 -105.147286294  1571.4329   5   7   3.0563   2.6835   8.1321   0.8574  -1.1079  -2.1646   0.00    0.0
2018/02/11 22:46:40.400   40.097033855 -105.147286379  1571.4927   5   7   3.0563   2.6835   8.1321   0.8573  -1.1076  -2.1646   0.00    0.0
2018/02/11 22:46:40.600   40.097034379 -105.147286353  1571.3198   5   7   3.0562   2.6835   8.1321   0.8571  -1.1073  -2.1647   0.00    0.0
2018/02/11 22:46:40.800   40.097033781 -105.147287367  1571.4034   5   7   3.0562   2.6835   8.1321   0.8570  -1.1070  -2.1647   0.00    0.0
2018/02/11 22:46:41.000   40.097033036 -105.147287352  1571.5311   5   7   3.0561   2.6835   8.1322   0.8568  -1.1067  -2.1648   0.00    0.0
2018/02/11 22:46:41.200   40.097032909 -105.147287718  1571.7172   5   7   3.0561   2.6835   8.1322   0.8567  -1.1064  -2.1648   0.00    0.0
2018/02/11 22:46:41.400   40.097033535 -105.147287113  1571.4655   5   7   3.0560   2.6835   8.1322   0.8565  -1.1061  -2.1649   0.00    0.0
2018/02/11 22:46:41.600   40.097034338 -105.147287309  1571.4062   5   7   3.0559   2.6835   8.1322   0.8564  -1.1059  -2.1650   0.00    0.0
2018/02/11 22:46:41.800   40.097034294 -105.147287183  1571.2191   5   7   3.0559   2.6835   8.1323   0.8562  -1.1056  -2.1650   0.00    0.0
2018/02/11 22:46:42.000   40.097034510 -105.147287119  1571.0975   5   7   3.0558   2.6835   8.1323   0.8561  -1.1053  -2.1651   0.00    0.0
2018/02/11 22:46:42.200   40.097034104 -105.147288002  1571.4820   5   7   3.0558   2.6835   8.1323   0.8560  -1.1050  -2.1651   0.00    0.0
2018/02/11 22:46:42.400   40.097033682 -105.147288005  1571.4924   5   7   3.0557   2.6835   8.1323   0.8558  -1.1047  -2.1652   0.00    0.0
2018/02/11 22:46:42.600   40.097033884 -105.147287504  1571.4927   5   7   3.0557   2.6835   8.1323   0.8557  -1.1044  -2.1652   0.00    0.0
2018/02/11 22:46:42.800   40.097034036 -105.147287332  1571.3772   5   7   3.0556   2.6836   8.1324   0.8555  -1.1041  -2.1653   0.00    0.0
2018/02/11 22:46:43.000   40.097032859 -105.147287842  1571.5539   5   7   3.0556   2.6836   8.1324   0.8554  -1.1038  -2.1654   0.00    0.0
2018/02/11 22:46:43.200   40.097033158 -105.147287613  1571.2000   5   7   3.0555   2.6836   8.1324   0.8552  -1.1036  -2.1654   0.00    0.0
2018/02/11 22:46:43.400   40.097032794 -105.147287537  1571.0861   5   7   3.0555   2.6836   8.1324   0.8551  -1.1033  -2.1655   0.00    0.0
2018/02/11 22:46:43.600   40.097032491 -105.147287784  1571.1474   5   7   3.0554   2.6836   8.1325   0.8549  -1.1030  -2.1655   0.00    0.0
2018/02/11 22:46:43.800   40.097032543 -105.147287536  1571.1375   5   7   3.0553   2.6836   8.1325   0.8548  -1.1027  -2.1656   0.00    0.0
2018/02/11 22:46:44.000   40.097032600 -105.147287998  1571.3872   5   7   3.0553   2.6836   8.1325   0.8546  -1.1024  -2.1656   0.00    0.0
2018/02/11 22:46:44.200   40.097032698 -105.147288170  1571.2908   5   7   3.0552   2.6836   8.1325   0.8545  -1.1021  -2.1657   0.00    0.0
2018/02/11 22:46:44.400   40.097032494 -105.147288332  1571.3325   5   7   3.0552   2.6836   8.1326   0.8543  -1.1018  -2.1658   0.00    0.0
2018/02/11 22:46:44.600   40.097033065 -105.147287946  1571.3450   5   7   3.0551   2.6836   8.1326   0.8542  -1.1015  -2.1658   0.00    0.0
2018/02/11 22:46:44.800   40.097033664 -105.147288447  1571.1181   5   7   3.0551   2.6836   8.1326   0.8540  -1.1012  -2.1659   0.00    0.0
2018/02/11 22:46:45.000   40.097033708 -105.147289215  1571.1467   5   7   3.0550   2.6836   8.1326   0.8539  -1.1010  -2.1659   0.00    0.0
2018/02/11 22:46:45.200   40.097033790 -105.147288667  1571.3193   5   7   3.0550   2.6836   8.1326   0.8537  -1.1007  -2.1660   0.00    0.0
2018/02/11 22:46:45.400   40.097034663 -105.147288683  1571.1313   5   7   3.0549   2.6836   8.1327   0.8536  -1.1004  -2.1660   0.00    0.0
2018/02/11 22:46:45.600   40.097034482 -105.147288301  1570.8507   5   7   3.0549   2.6836   8.1327   0.8534  -1.1001  -2.1661   0.00    0.0
2018/02/11 22:46:45.800   40.097033258 -105.147289167  1570.9294   5   7   3.0548   2.6836   8.1327   0.8533  -1.0998  -2.1662   0.00    0.0
2018/02/11 22:46:46.000   40.097033853 -105.147288716  1571.1682   5   7   3.0548   2.6836   8.1327   0.8531  -1.0995  -2.1662   0.00    0.0
2018/02/11 22:46:46.200   40.097033362 -105.147289067  1571.2054   5   7   3.0547   2.6837   8.1328   0.8530  -1.0992  -2.1663   0.00    0.0
2018/02/11 22:46:46.400   40.097033682 -105.147289527  1571.0766   5   7   3.0546   2.6837   8.1328   0.8529  -1.0989  -2.1663   0.00    0.0
2018/02/11 22:46:46.600   40.097033220 -105.147289846  1571.1995   5   7   3.0546   2.6837   8.1328   0.8527  -1.0986  -2.1664   0.00    0.0
2018/02/11 22:46:46.800   40.097033142 -105.147290100  1571.2747   5   7   3.0545   2.6837   8.1328   0.8526  -1.0983  -2.1664   0.00    0.0
2018/02/11 22:46:47.000   40.097032169 -105.147289599  1571.4873   5   7   3.0545   2.6837   8.1329   0.8524  -1.0981  -2.1665   0.00    0.0
2018/02/11 22:46:47.200   40.097032075 -105.147290090  1571.4073   5   7   3.0544   2.6837   8.1329   0.8523  -1.0978  -2.1666   0.00    0.0
2018/02/11 22:46:47.400   40.097032464 -105.147290558  1571.3829   5   7   3.0544   2.6837   8.1329   0.8521  -1.0975  -2.1666   0.00    0.0
2018/02/11 22:46:47.600   40.097033725 -105.147290262  1571.3036   5   7   3.0543   2.6837   8.1329   0.8520  -1.0972  -2.1667   0.00    0.0
2018/02/11 22:46:47.800   40.097034155 -105.147290596  1571.4212   5   7   3.0543   2.6837   8.1329   0.8518  -1.0969  -2.1667   0.00    0.0
2018/02/11 22:46:48.000   40.097033881 -105.147290128  1571.6467   5   7   3.0542   2.6837   8.1330   0.8517  -1.0966  -2.1668   0.00    0.0
2018/02/11 22:46:48.200   40.097033371 -105.147290913  1571.8383   5   7   3.0542   2.6837   8.1330   0.8515  -1.0963  -2.1668   0.00    0.0
2018/02/11 22:46:48.400   40.097033867 -105.147290423  1572.1685   5   7   3.0541   2.6837   8.1330   0.8514  -1.0960  -2.1669   0.00    0.0
2018/02/11 22:46:48.600   40.097033723 -105.147290083  1572.3853   5   7   3.0540   2.6837   8.1330   0.8512  -1.0957  -2.1670   0.00    0.0
2018/02/11 22:46:48.800   40.097033179 -105.147291283  1572.7399   5   7   3.0540   2.6837   8.1331   0.8511  -1.0954  -2.1670   0.00    0.0
2018/02/11 22:46:49.000   40.097032928 -105.147291582  1572.8512   5   7   3.0539   2.6837   8.1331   0.8509  -1.0952  -2.1671   0.00    0.0
2018/02/11 22:46:49.200   40.097033370 -105.147291777  1573.0544   5   7   3.0539   2.6837   8.1331   0.8508  -1.0949  -2.1671   0.00    0.0
2018/02/11 22:46:49.400   40.097033311 -105.147292001  1572.9110   5   7   3.0538   2.6837   8.1331   0.8506  -1.0946  -2.1672   0.00    0.0
2018/02/11 22:46:49.600   40.097033306 -105.147292697  1573.3467   5   7   3.0538   2.6837   8.1331   0.8505  -1.0943  -2.1672   0.00    0.0
2018/02/11 22:46:49.800   40.097033829 -105.147293598  1573.3545   5   7   3.0537   2.6838   8.1332   0.8503  -1.0940  -2.1673   0.00    0.0
2018/02/11 22:46:50.000   40.097034334 -105.147294201  1573.3506   5   7   3.0537   2.6838   8.1332   0.8502  -1.0937  -2.1674   0.00    0.0
2018/02/11 22:46:50.200   40.097033547 -105.147294908  1573.4399   5   7   3.0536   2.6838   8.1332   0.8500  -1.0934  -2.1674   0.00    0.0
2018/02/11 22:46:50.400   40.097034198 -105.147294996  1573.4701   5   7   3.0536   2.6838   8.1332   0.8499  -1.0931  -2.1675   0.00    0.0
2018/02/11 22:46:50.600   40.097034306 -105.147294745  1573.6368   5   7   3.0535   2.6838   8.1333   0.8497  -1.0928  -2.1675   0.00    0.0
2018/02/11 22:46:50.800   40.097034054 -105.147295453  1573.6660   5   7   3.0535   2.6838   8.1333   0.8496  -1.0925  -2.1676   0.00    0.0
2018/02/11 22:46:51.000   40.097034779 -105.147295046  1573.7223   5   7   3.0534   2.6838   8.1333   0.8494  -1.0922  -2.1676   0.00    0.0
2018/02/11 22:46:51.200   40.097035005 -105.147294604  1574.0430   5   7   3.0533   2.6838   8.1333   0.8493  -1.0919  -2.1677   0.00    0.0
2018/02/11 22:46:51.400   40.097035289 -105.147295460  1574.1695   5   7   3.0533   2.6838   8.1334   0.8492  -1.0916  -2.1678   0.00    0.0
2018/02/11 22:46:51.600   40.097036205 -105.147295654  1574.1467   5   7   3.0532   2.6838   8.1334   0.8490  -1.0914  -2.1678   0.00    0.0
2018/02/11 22:46:51.800   40.097036514 -105.147295069  1574.1063   5   7   3.0532   2.6838   8.1334   0.8489  -1.0911  -2.1679   0.00    0.0
2018/02/11 22:46:52.000   40.097035973 -105.147294234  1574.2501   5   7   3.0531   2.6838   8.1334   0.8487  -1.0908  -2.1679   0.00    0.0
2018/02/11 22:46:52.200   40.097035771 -105.147294399  1574.5180   5   7   3.0531   2.6838   8.1334   0.8486  -1.0905  -2.1680   0.00    0.0
2018/02/11 22:46:52.400   40.097035431 -105.147294909  1574.3060   5   7   3.0530   2.6838   8.1335   0.8484  -1.0902  -2.1681   0.00    0.0
2018/02/11 22:46:52.600   40.097035372 -105.147295048  1574.3622   5   7   3.0530   2.6838   8.1335   0.8483  -1.0899  -2.1681   0.00    0.0
2018/02/11 22:46:52.800   40.097035405 -105.147293967  1574.6193   5   7   3.0529   2.6838   8.1335   0.8481  -1.0896  -2.1682   0.00    0.0
2018/02/11 22:46:53.000   40.097036254 -105.147295710  1574.8715   5   7   3.0529   2.6839   8.1335   0.8480  -1.0893  -2.1682   0.00    0.0
2018/02/11 22:46:53.200   40.097035549 -105.147295889  1574.7860   5   7   3.0528   2.6839   8.1336   0.8478  -1.0890  -2.1683   0.00    0.0
2018/02/11 22:46:53.400   40.097035476 -105.147295506  1574.6515   5   7   3.0528   2.6839   8.1336   0.8477  -1.0887  -2.1683   0.00    0.0
2018/02/11 22:46:53.600   40.097035696 -105.147296310  1574.7672   5   7   3.0527   2.6839   8.1336   0.8475  -1.0884  -2.1684   0.00    0.0
2018/02/11 22:46:53.800   40.097035299 -105.147296302  1574.9126   5   7   3.0526   2.6839   8.1336   0.8474  -1.0881  -2.1685   0.00    0.0
2018/02/11 22:46:54.000   40.097034188 -105.147296504  1574.8768   5   7   3.0526   2.6839   8.1336   0.8472  -1.0878  -2.1685   0.00    0.0
2018/02/11 22:46:54.200   40.097033630 -105.147296320  1575.0120   5   7   3.0525   2.6839   8.1337   0.8471  -1.0875  -2.1686   0.00    0.0
2018/02/11 22:46:54.400   40.097033674 -105.147296639  1574.9491   5   7   3.0525   2.6839   8.1337   0.8469  -1.0872  -2.1686   0.00    0.0
2018/02/11 22:46:54.600   40.097033522 -105.147297400  1574.8513   5   7   3.0524   2.6839   8.1337   0.8468  -1.0870  -2.1687   0.00    0.0
2018/02/11 22:46:54.800   40.097033876 -105.147298634  1575.0757   5   7   3.0524   2.6839   8.1337   0.8466  -1.0867  -2.1687   0.00    0.0
2018/02/11 22:46:55.000   40.097033983 -105.147299718  1574.9142   5   7   3.0523   2.6839   8.1338   0.8465  -1.0864  -2.1688   0.00    0.0
2018/02/11 22:46:55.200   40.097033538 -105.147299484  1575.0988   5   7   3.0523   2.6839   8.1338   0.8463  -1.0861  -2.1689   0.00    0.0
2018/02/11 22:46:55.400   40.097033737 -105.147299882  1575.2753   5   7   3.0522   2.6839   8.1338   0.8462  -1.0858  -2.1689   0.00    0.0
2018/02/11 22:46:55.600   40.097033480 -105.147301312  1575.7039   5   7   3.0522   2.6839   8.1338   0.8460  -1.0855  -2.1690   0.00    0.0
2018/02/11 22:46:55.800   40.097033680 -105.147301207  1575.6895   5   7   3.0521   2.6839   8.1338   0.8459  -1.0852  -2.1690   0.00    0.0
2018/02/11 22:46:56.000   40.097034087 -105.147300884  1575.4797   5   7   3.0521   2.6839   8.1339   0.8457  -1.0849  -2.1691   0.00    0.0
2018/02/11 22:46:56.200   40.097034747 -105.147300570  1575.2625   5   7   3.0520   2.6839   8.1339   0.8456  -1.0846  -2.1691   0.00    0.0
2018/02/11 22:46:56.400   40.097034700 -105.147300770  1575.1627   5   7   3.0519   2.6840   8.1339   0.8454  -1.0843  -2.1692   0.00    0.0
2018/02/11 22:46:56.600   40.097035758 -105.147300106  1575.2879   5   7   3.0519   2.6840   8.1339   0.8453  -1.0840  -2.1693   0.00    0.0
2018/02/11 22:46:56.800   40.097035103 -105.147300518  1575.3305   5   7   3.0518   2.6840   8.1339   0.8451  -1.0837  -2.1693   0.00    0.0
2018/02/11 22:46:57.000   40.097034996 -105.147300686  1575.2977   5   7   3.0518   2.6840   8.1340   0.8450  -1.0834  -2.1694   0.00    0.0
2018/02/11 22:46:57.200   40.097035168 -105.147300572  1575.1642   5   7   3.0517   2.6840   8.1340   0.8448  -1.0831  -2.1694   0.00    0.0
2018/02/11 22:46:57.400   40.097035475 -105.147301057  1575.0144   5   7   3.0517   2.6840   8.1340   0.8447  -1.0828  -2.1695   0.00    0.0
2018/02/11 22:46:57.600   40.097035383 -105.147300848  1574.8037   5   7   3.0516   2.6840   8.1340   0.8445  -1.0825  -2.1695   0.00    0.0
2018/02/11 22:46:57.800   40.097034984 -105.147301225  1575.0514   5   7   3.0516   2.6840   8.1341   0.8444  -1.0822  -2.1696   0.00    0.0
2018/02/11 22:46:58.000   40.097034979 -105.147301803  1574.9827   5   7   3.0515   2.6840   8.1341   0.8442  -1.0819  -2.1697   0.00    0.0
2018/02/11 22:46:58.200   40.097033764 -105.147301065  1575.0632   5   7   3.0515   2.6840   8.1341   0.8441  -1.0816  -2.1697   0.00    0.0
2018/02/11 22:46:58.400   40.097033892 -105.147300280  1575.2039   5   7   3.0514   2.6840   8.1341   0.8439  -1.0813  -2.1698   0.00    0.0
2018/02/11 22:46:58.600   40.097033798 -105.147300145  1575.3254   5   7   3.0514   2.6840   8.1341   0.8438  -1.0811  -2.1698   0.00    0.0
2018/02/11 22:46:58.800   40.097034028 -105.147300349  1575.2713   5   7   3.0513   2.6840   8.1342   0.8436  -1.0808  -2.1699   0.00    0.0
2018/02/11 22:46:59.000   40.097034086 -105.147299352  1575.0767   5   7   3.0512   2.6840   8.1342   0.8435  -1.0805  -2.1700   0.00    0.0
2018/02/11 22:46:59.200   40.097034536 -105.147298958  1575.1448   5   7   3.0512   2.6840   8.1342   0.8433  -1.0802  -2.1700   0.00    0.0
2018/02/11 22:46:59.400   40.097034100 -105.147298322  1575.3632   5   7   3.0511   2.6840   8.1342   0.8432  -1.0799  -2.1701   0.00    0.0
2018/02/11 22:46:59.600   40.097034563 -105.147298530  1575.0835   5   7   3.0511   2.6841   8.1343   0.8430  -1.0796  -2.1701   0.00    0.0
2018/02/11 22:46:59.800   40.097034770 -105.147298494  1575.2359   5   7   3.0510   2.6841   8.1343   0.8429  -1.0793  -2.1702   0.00    0.0
2018/02/11 22:47:00.000   40.097033607 -105.147298005  1575.2265   5   7   3.0510   2.6841   8.1343   0.8427  -1.0790  -2.1702   0.00    0.0
2018/02/11 22:47:00.200   40.097033652 -105.147297779  1575.2737   5   7   3.0509   2.6841   8.1343   0.8426  -1.0787  -2.1703   0.00    0.0
2018/02/11 22:47:00.400   40.097032673 -105.147297616  1575.3322   5   7   3.0509   2.6841   8.1343   0.8425  -1.0784  -2.1704   0.00    0.0
2018/02/11 22:47:00.600   40.097032408 -105.147297256  1575.3150   5   7   3.0508   2.6841   8.1344   0.8423  -1.0781  -2.1704   0.00    0.0
2018/02/11 22:47:00.800   40.097033222 -105.147298008  1575.1572   5   7   3.0508   2.6841   8.1344   0.8422  -1.0778  -2.1705   0.00    0.0
2018/02/11 22:47:01.000   40.097033261 -105.147298141  1574.9013   5   7   3.0507   2.6841   8.1344   0.8420  -1.0775  -2.1705   0.00    0.0
2018/02/11 22:47:01.200   40.097033510 -105.147297908  1574.5977   5   7   3.0507   2.6841   8.1344   0.8419  -1.0772  -2.1706   0.00    0.0
2018/02/11 22:47:01.400   40.097033528 -105.147297661  1574.5395   5   7   3.0506   2.6841   8.1344   0.8417  -1.0769  -2.1706   0.00    0.0
2018/02/11 22:47:01.600   40.097034374 -105.147296754  1574.3665   5   7   3.0506   2.6841   8.1345   0.8416  -1.0766  -2.1707   0.00    0.0
2018/02/11 22:47:01.800   40.097034628 -105.147297159  1574.3372   5   7   3.0505   2.6841   8.1345   0.8414  -1.0763  -2.1708   0.00    0.0
2018/02/11 22:47:02.000   40.097035348 -105.147296573  1574.0511   5   7   3.0504   2.6841   8.1345   0.8413  -1.0760  -2.1708   0.00    0.0
2018/02/11 22:47:02.200   40.097036368 -105.147296557  1573.7699   5   7   3.0504   2.6841   8.1345   0.8411  -1.0757  -2.1709   0.00    0.0
2018/02/11 22:47:02.400   40.097038186 -105.147295662  1573.2757   5   7   3.0503   2.6841   8.1346   0.8410  -1.0754  -2.1709   0.00    0.0
2018/02/11 22:47:02.600   40.097038573 -105.147294531  1572.9085   5   7   3.0503   2.6841   8.1346   0.8408  -1.0751  -2.1710   0.00    0.0
2018/02/11 22:47:02.800   40.097038072 -105.147292407  1573.5111   5   7   3.0502   2.6841   8.1346   0.8407  -1.0748  -2.1711   0.00    0.0
2018/02/11 22:47:03.000   40.097037217 -105.147289477  1573.8496   5   7   3.0502   2.6842   8.1346   0.8405  -1.0745  -2.1711   0.00    0.0
2018/02/11 22:47:03.200   40.097036908 -105.147286468  1574.1924   5   7   3.0501   2.6842   8.1346   0.8404  -1.0742  -2.1712   0.00    0.0
2018/02/11 22:47:03.400   40.097037083 -105.147282227  1574.3739   5   7   3.0501   2.6842   8.1347   0.8402  -1.0739  -2.1712   0.00    0.0
2018/02/11 22:47:03.600   40.097037630 -105.147277731  1574.2802   5   7   3.0500   2.6842   8.1347   0.8401  -1.0736  -2.1713   0.00    0.0
2018/02/11 22:47:03.800   40.097037283 -105.147273616  1574.3199   5   7   3.0500   2.6842   8.1347   0.8399  -1.0733  -2.1713   0.00    0.0
2018/02/11 22:47:04.000   40.097037443 -105.147269995  1574.2024   5   7   3.0499   2.6842   8.1347   0.8398  -1.0730  -2.1714   0.00    0.0
2018/02/11 22:47:04.200   40.097038719 -105.147263527  1574.0339   5   7   3.0499   2.6842   8.1347   0.8396  -1.0727  -2.1715   0.00    0.0
2018/02/11 22:47:04.400   40.097038494 -105.147259007  1573.9015   5   7   3.0498   2.6842   8.1348   0.8395  -1.0724  -2.1715   0.00    0.0
2018/02/11 22:47:04.600   40.097039180 -105.147253337  1573.8799   5   7   3.0497   2.6842   8.1348   0.8393  -1.0721  -2.1716   0.00    0.0
2018/02/11 22:47:04.800   40.097039573 -105.147246081  1574.0408   5   7   3.0497   2.6842   8.1348   0.8392  -1.0718  -2.1716   0.00    0.0
2018/02/11 22:47:05.000   40.097040189 -105.147241734  1574.0156   5   7   3.0496   2.6842   8.1348   0.8390  -1.0715  -2.1717   0.00    0.0
2018/02/11 22:47:05.200   40.097041550 -105.147233987  1573.9279   5   7   3.0496   2.6842   8.1349   0.8389  -1.0712  -2.1717   0.00    0.0
2018/02/11 22:47:05.400   40.097042991 -105.147224333  1573.7554   5   7   3.0495   2.6842   8.1349   0.8387  -1.0709  -2.1718   0.00    0.0
2018/02/11 22:47:05.600   40.097044546 -105.147214845  1573.7592   5   7   3.0495   2.6842   8.1349   0.8386  -1.0706  -2.1719   0.00    0.0
2018/02/11 22:47:05.800   40.097045160 -105.147205818  1573.7712   5   7   3.0494   2.6842   8.1349   0.8384  -1.0703  -2.1719   0.00    0.0
2018/02/11 22:47:06.000   40.097046490 -105.147195585  1573.6676   5   7   3.0494   2.6842   8.1349   0.8383  -1.0701  -2.1720   0.00    0.0
2018/02/11 22:47:06.200   40.097047243 -105.147185664  1573.8281   5   7   3.0493   2.6843   8.1350   0.8381  -1.0698  -2.1720   0.00    0.0
2018/02/11 22:47:06.400   40.097049057 -105.147174599  1573.7955   5   7   3.0493   2.6843   8.1350   0.8380  -1.0695  -2.1721   0.00    0.0
2018/02/11 22:47:06.600   40.097048935 -105.147164073  1574.0567   5   7   3.0492   2.6843   8.1350   0.8378  -1.0692  -2.1721   0.00    0.0
2018/02/11 22:47:06.800   40.097050135 -105.147151631  1574.1751   5   7   3.0492   2.6843   8.1350   0.8377  -1.0689  -2.1722   0.00    0.0
2018/02/11 22:47:07.000   40.097051626 -105.147138260  1573.9896   5   7   3.0491   2.6843   8.1350   0.8375  -1.0686  -2.1723   0.00    0.0
2018/02/11 22:47:07.200   40.097051462 -105.147126319  1574.0080   5   7   3.0491   2.6843   8.1351   0.8374  -1.0683  -2.1723   0.00    0.0
2018/02/11 22:47:07.400   40.097052457 -105.147113705  1574.0736   5   7   3.0490   2.6843   8.1351   0.8372  -1.0680  -2.1724   0.00    0.0
2018/02/11 22:47:07.600   40.097053009 -105.147101148  1573.9151   5   7   3.0489   2.6843   8.1351   0.8371  -1.0677  -2.1724   0.00    0.0
2018/02/11 22:47:07.800   40.097053430 -105.147088024  1573.6786   5   7   3.0489   2.6843   8.1351   0.8369  -1.0674  -2.1725   0.00    0.0
2018/02/11 22:47:08.000   40.097054083 -105.147074081  1573.5180   5   7   3.0488   2.6843   8.1351   0.8368  -1.0671  -2.1726   0.00    0.0
2018/02/11 22:47:08.200   40.097055063 -105.147061136  1573.7397   5   7   3.0488   2.6843   8.1352   0.8366  -1.0668  -2.1726   0.00    0.0
2018/02/11 22:47:08.400   40.097055421 -105.147048333  1573.6755   5   7   3.0487   2.6843   8.1352   0.8365  -1.0665  -2.1727   0.00    0.0
2018/02/11 22:47:08.600   40.097055924 -105.147035396  1573.6639   5   7   3.0487   2.6843   8.1352   0.8363  -1.0662  -2.1727   0.00    0.0
2018/02/11 22:47:08.800   40.097055843 -105.147021785  1573.9799   5   7   3.0486   2.6843   8.1352   0.8362  -1.0659  -2.1728   0.00    0.0
2018/02/11 22:47:09.000   40.097056645 -105.147007882  1573.9019   5   7   3.0486   2.6843   8.1352   0.8360  -1.0656  -2.1728   0.00    0.0
2018/02/11 22:47:09.200   40.097057650 -105.146993609  1573.6303   5   7   3.0485   2.6844   8.1353   0.8359  -1.0653  -2.1729   0.00    0.0
2018/02/11 22:47:09.400   40.097057886 -105.146979500  1573.5733   5   7   3.0485   2.6844   8.1353   0.8357  -1.0650  -2.1730   0.00    0.0
2018/02/11 22:47:09.600   40.097058584 -105.146964003  1573.7934   5   7   3.0484   2.6844   8.1353   0.8356  -1.0647  -2.1730   0.00    0.0
2018/02/11 22:47:09.800   40.097058163 -105.146948072  1573.6087   5   7   3.0484   2.6844   8.1353   0.8354  -1.0644  -2.1731   0.00    0.0
2018/02/11 22:47:10.000   40.097057575 -105.146931888  1573.8084   5   7   3.0483   2.6844   8.1354   0.8353  -1.0641  -2.1731   0.00    0.0
2018/02/11 22:47:10.200   40.097058312 -105.146914083  1573.7699   5   7   3.0483   2.6844   8.1354   0.8351  -1.0638  -2.1732   0.00    0.0
2018/02/11 22:47:10.400   40.097059645 -105.146896822  1573.8806   5   7   3.0482   2.6844   8.1354   0.8350  -1.0635  -2.1732   0.00    0.0
2018/02/11 22:47:10.600   40.097060278 -105.146879576  1574.2176   5   7   3.0481   2.6844   8.1354   0.8348  -1.0632  -2.1733   0.00    0.0
2018/02/11 22:47:10.800   40.097060481 -105.146862962  1573.9862   5   7   3.0481   2.6844   8.1354   0.8347  -1.0629  -2.1734   0.00    0.0
2018/02/11 22:47:11.000   40.097060687 -105.146845883  1574.1091   5   7   3.0480   2.6844   8.1355   0.8345  -1.0626  -2.1734   0.00    0.0
2018/02/11 22:47:11.200   40.097062250 -105.146828594  1573.8562   5   7   3.0480   2.6844   8.1355   0.8344  -1.0623  -2.1735   0.00    0.0
2018/02/11 22:47:11.400   40.097061807 -105.146810526  1574.3386   5   7   3.0479   2.6844   8.1355   0.8342  -1.0620  -2.1735   0.00    0.0
2018/02/11 22:47:11.600   40.097063026 -105.146792220  1574.5879   5   7   3.0479   2.6844   8.1355   0.8341  -1.0617  -2.1736   0.00    0.0
2018/02/11 22:47:11.800   40.097063392 -105.146773083  1574.5333   5   7   3.0478   2.6844   8.1355   0.8339  -1.0614  -2.1736   0.00    0.0
2018/02/11 22:47:12.000   40.097063221 -105.146754429  1574.4715   5   7   3.0478   2.6844   8.1356   0.8338  -1.0612  -2.1737   0.00    0.0
2018/02/11 22:47:12.200   40.097064796 -105.146734079  1574.2013   5   7   3.0477   2.6844   8.1356   0.8336  -1.0609  -2.1738   0.00    0.0
2018/02/11 22:47:12.400   40.097064874 -105.146713547  1574.4994   5   7   3.0477   2.6845   8.1356   0.8335  -1.0606  -2.1738   0.00    0.0
2018/02/11 22:47:12.600   40.097063614 -105.146693346  1574.5018   5   7   3.0476   2.6845   8.1356   0.8333  -1.0603  -2.1739   0.00    0.0
2018/02/11 22:47:12.800   40.097064283 -105.146673174  1574.4733   5   7   3.0476   2.6845   8.1356   0.8332  -1.0600  -2.1739   0.00    0.0
2018/02/11 22:47:13.000   40.097065135 -105.146652543  1574.5368   5   7   3.0475   2.6845   8.1357   0.8330  -1.0597  -2.1740   0.00    0.0
2018/02/11 22:47:13.200   40.097066003 -105.146633153  1574.2605   5   7   3.0475   2.6845   8.1357   0.8329  -1.0594  -2.1740   0.00    0.0
2018/02/11 22:47:13.400   40.097066745 -105.146613618  1574.2335   5   7   3.0474   2.6845   8.1357   0.8327  -1.0591  -2.1741   0.00    0.0
2018/02/11 22:47:13.600   40.097067485 -105.146592473  1574.3900   5   7   3.0473   2.6845   8.1357   0.8326  -1.0588  -2.1742   0.00    0.0
2018/02/11 22:47:13.800   40.097067650 -105.146571520  1574.4768   5   7   3.0473   2.6845   8.1357   0.8324  -1.0585  -2.1742   0.00    0.0
2018/02/11 22:47:14.000   40.097067417 -105.146550748  1574.6052   5   7   3.0472   2.6845   8.1358   0.8323  -1.0582  -2.1743   0.00    0.0
2018/02/11 22:47:14.200   40.097068384 -105.146529325  1574.6602   5   7   3.0472   2.6845   8.1358   0.8321  -1.0579  -2.1743   0.00    0.0
2018/02/11 22:47:14.400   40.097068860 -105.146509916  1574.8328   5   7   3.0471   2.6845   8.1358   0.8320  -1.0576  -2.1744   0.00    0.0
2018/02/11 22:47:14.600   40.097068804 -105.146489815  1574.9483   5   7   3.0471   2.6845   8.1358   0.8318  -1.0573  -2.1745   0.00    0.0
2018/02/11 22:47:14.800   40.097067998 -105.146469010  1574.7714   5   7   3.0470   2.6845   8.1358   0.8317  -1.0570  -2.1745   0.00    0.0
2018/02/11 22:47:15.000   40.097068567 -105.146448889  1574.5667   5   7   3.0470   2.6845   8.1359   0.8315  -1.0567  -2.1746   0.00    0.0
